% (lat/lon/height=WGS84/ellipsoidal,Q=1:fix,2:float,3:sbas,4:dgps,5:single,6:ppp,ns=# of satellites)
%  GPST          latitude(deg) longitude(deg)  height(m)   Q  ns   sdn(m)   sde(m)   sdu(m)  sdne(m)  sdeu(m)  sdun(m) age(s)  ratio
2041 234709.000   44.408762560    8.929454664    85.4845   5   7   9.5790   4.3541  14.9886  -4.9176  -4.9598   9.6679   0.00    0.0
2041 234710.000   44.408771447    8.929464661    87.8135   5   7   9.5765   4.3540  14.9824  -4.9167  -4.9574   9.6629   0.00    0.0
2041 234711.000   44.408779154    8.929466515    88.4465   5   7   9.5739   4.3538  14.9762  -4.9158  -4.9550   9.6579   0.00    0.0
2041 234712.000   44.408791490    8.929464782    89.9718   5   7   9.5714   4.3537  14.9700  -4.9149  -4.9526   9.6529   0.00    0.0
2041 234713.000   44.408789482    8.929452642    88.6720   5   7   9.5689   4.3535  14.9638  -4.9141  -4.9502   9.6479   0.00    0.0
2041 234714.000   44.408787303    8.929455754    89.4944   5   7   9.5664   4.3534  14.9576  -4.9132  -4.9478   9.6429   0.00    0.0
2041 234715.000   44.408776283    8.929449035    87.2424   5   7   9.5639   4.3532  14.9514  -4.9123  -4.9454   9.6379   0.00    0.0
2041 234716.000   44.408782374    8.929445885    88.5438   5   7   9.5614   4.3531  14.9452  -4.9114  -4.9430   9.6329   0.00    0.0
2041 234717.000   44.408760051    8.929447002    85.3116   5   7   9.5589   4.3529  14.9391  -4.9106  -4.9405   9.6279   0.00    0.0
2041 234718.000   44.408743592    8.929444012    82.2919   5   7   9.5565   4.3528  14.9329  -4.9097  -4.9381   9.6229   0.00    0.0
2041 234719.000   44.408756537    8.929436924    84.5670   5   7   9.5540   4.3527  14.9267  -4.9088  -4.9357   9.6179   0.00    0.0
2041 234720.000   44.408747280    8.929442692    83.3251   5   7   9.5515   4.3525  14.9206  -4.9080  -4.9333   9.6129   0.00    0.0
2041 234721.000   44.408746749    8.929434730    83.2476   5   7   9.5490   4.3524  14.9144  -4.9071  -4.9309   9.6079   0.00    0.0
2041 234722.000   44.408744247    8.929427705    83.1011   5   7   9.5465   4.3522  14.9083  -4.9062  -4.9285   9.6029   0.00    0.0
2041 234723.000   44.408736127    8.929428658    82.3485   5   7   9.5440   4.3521  14.9021  -4.9054  -4.9261   9.5979   0.00    0.0
2041 234724.000   44.408718935    8.929432851    79.9381   5   7   9.5415   4.3519  14.8960  -4.9045  -4.9237   9.5929   0.00    0.0
2041 234725.000   44.408722367    8.929437719    80.8968   5   7   9.5391   4.3518  14.8898  -4.9036  -4.9213   9.5879   0.00    0.0
2041 234726.000   44.408705965    8.929446563    79.7375   5   7   9.5366   4.3517  14.8837  -4.9028  -4.9190   9.5830   0.00    0.0
2041 234727.000   44.408693516    8.929447392    78.3240   5   7   9.5341   4.3515  14.8776  -4.9019  -4.9166   9.5780   0.00    0.0
2041 234728.000   44.408663086    8.929455751    74.5719   5   7   9.5316   4.3514  14.8714  -4.9010  -4.9142   9.5730   0.00    0.0
2041 234729.000   44.408651580    8.929471813    73.6593   5   7   9.5292   4.3512  14.8653  -4.9002  -4.9118   9.5681   0.00    0.0
2041 234730.000   44.408654994    8.929473939    73.6111   5   7   9.5267   4.3511  14.8592  -4.8993  -4.9094   9.5631   0.00    0.0
2041 234731.000   44.408638369    8.929472925    70.5029   5   7   9.5242   4.3509  14.8531  -4.8985  -4.9070   9.5581   0.00    0.0
2041 234732.000   44.408653279    8.929480840    73.4151   5   7   9.5217   4.3508  14.8470  -4.8976  -4.9046   9.5532   0.00    0.0
2041 234733.000   44.408640482    8.929485266    71.2408   5   7   9.5193   4.3507  14.8409  -4.8967  -4.9022   9.5482   0.00    0.0
2041 234734.000   44.408642666    8.929469206    70.8647   5   7   9.5168   4.3505  14.8348  -4.8959  -4.8998   9.5432   0.00    0.0
2041 234735.000   44.408643085    8.929482835    74.6560   5   7   9.5143   4.3504  14.8287  -4.8950  -4.8974   9.5383   0.00    0.0
2041 234736.000   44.408652751    8.929498622    78.2062   5   7   9.5119   4.3502  14.8226  -4.8942  -4.8951   9.5333   0.00    0.0
2041 234737.000   44.408661952    8.929498017    78.8063   5   7   9.5094   4.3501  14.8165  -4.8933  -4.8927   9.5284   0.00    0.0
2041 234738.000   44.408683020    8.929488782    82.0565   5   7   9.5070   4.3500  14.8104  -4.8924  -4.8903   9.5234   0.00    0.0
