% (lat/lon/height=WGS84/ellipsoidal,Q=1:fix,2:float,3:sbas,4:dgps,5:single,6:ppp,ns=# of satellites)
%  GPST          latitude(deg) longitude(deg)  height(m)   Q  ns   sdn(m)   sde(m)   sdu(m)  sdne(m)  sdeu(m)  sdun(m) age(s)  ratio
2045 301669.000   44.408650467    8.929484013   111.4959   5   6   8.6123   5.1593  13.6899  -4.6660  -5.7601   6.5309   0.00    0.0
2045 301670.000   44.408653195    8.929483669   113.6972   5   6   8.6121   5.1599  13.6882  -4.6667  -5.7601   6.5301   0.00    0.0
2045 301671.000   44.408652074    8.929487008   114.1585   5   6   8.6118   5.1604  13.6865  -4.6675  -5.7602   6.5294   0.00    0.0
2045 301672.000   44.408650664    8.929492616   115.7077   5   6   8.6115   5.1610  13.6848  -4.6682  -5.7602   6.5286   0.00    0.0
2045 301673.000   44.408654051    8.929488180   114.7268   5   6   8.6112   5.1615  13.6832  -4.6690  -5.7603   6.5279   0.00    0.0
2045 301674.000   44.408657520    8.929483809   112.5946   5   6   8.6109   5.1621  13.6815  -4.6697  -5.7604   6.5271   0.00    0.0
2045 301675.000   44.408655600    8.929490220   112.8843   5   6   8.6106   5.1626  13.6798  -4.6705  -5.7604   6.5264   0.00    0.0
2045 301676.000   44.408657850    8.929491641   112.8837   5   6   8.6103   5.1632  13.6781  -4.6712  -5.7605   6.5256   0.00    0.0
2045 301677.000   44.408659051    8.929485870   111.1853   5   6   8.6100   5.1637  13.6764  -4.6720  -5.7605   6.5249   0.00    0.0
2045 301678.000   44.408657518    8.929490218   111.3810   5   6   8.6097   5.1643  13.6747  -4.6727  -5.7606   6.5241   0.00    0.0
2045 301679.000   44.408652978    8.929507084   114.1574   5   6   8.6094   5.1648  13.6730  -4.6735  -5.7606   6.5233   0.00    0.0
2045 301680.000   44.408649532    8.929516307   112.9332   5   6   8.6091   5.1654  13.6713  -4.6742  -5.7607   6.5226   0.00    0.0
2045 301681.000   44.408646902    8.929531277   112.3243   5   6   8.6088   5.1659  13.6696  -4.6749  -5.7607   6.5218   0.00    0.0
2045 301682.000   44.408652606    8.929525084   110.0972   5   6   8.6085   5.1665  13.6679  -4.6757  -5.7608   6.5210   0.00    0.0
2045 301683.000   44.408651455    8.929533187   108.8090   5   6   8.6083   5.1670  13.6662  -4.6764  -5.7608   6.5203   0.00    0.0
2045 301684.000   44.408655585    8.929533080   109.1249   5   6   8.6080   5.1676  13.6644  -4.6772  -5.7609   6.5195   0.00    0.0
2045 301685.000   44.408659273    8.929531227   108.4358   5   6   8.6077   5.1681  13.6627  -4.6779  -5.7609   6.5187   0.00    0.0
2045 301686.000   44.408667694    8.929524086   104.4174   5   6   8.6074   5.1687  13.6610  -4.6786  -5.7610   6.5180   0.00    0.0
2045 301687.000   44.408667940    8.929525528   103.3408   5   6   8.6071   5.1692  13.6593  -4.6794  -5.7610   6.5172   0.00    0.0
2045 301688.000   44.408675664    8.929519471   101.2745   5   6   8.6068   5.1697  13.6576  -4.6801  -5.7611   6.5164   0.00    0.0
2045 301689.000   44.408677044    8.929513143   102.5299   5   6   8.6064   5.1703  13.6559  -4.6809  -5.7611   6.5156   0.00    0.0
2045 301690.000   44.408680999    8.929513617   102.0593   5   6   8.6061   5.1708  13.6542  -4.6816  -5.7612   6.5149   0.00    0.0
2045 301691.000   44.408679120    8.929522849   103.1006   5   6   8.6058   5.1714  13.6525  -4.6823  -5.7612   6.5141   0.00    0.0
2045 301692.000   44.408686323    8.929509799   103.9413   5   6   8.6055   5.1719  13.6508  -4.6831  -5.7612   6.5133   0.00    0.0
2045 301693.000   44.408684176    8.929517539   104.0301   5   6   8.6052   5.1725  13.6490  -4.6838  -5.7613   6.5125   0.00    0.0
2045 301694.000   44.408687093    8.929515728   106.3947   5   6   8.6049   5.1730  13.6473  -4.6845  -5.7613   6.5117   0.00    0.0
2045 301695.000   44.408685717    8.929515712   106.9800   5   6   8.6046   5.1736  13.6456  -4.6853  -5.7613   6.5109   0.00    0.0
2045 301696.000   44.408681532    8.929531152   106.2729   5   6   8.6043   5.1741  13.6439  -4.6860  -5.7614   6.5101   0.00    0.0
2045 301697.000   44.408689581    8.929519955   106.1091   5   6   8.6040   5.1747  13.6421  -4.6867  -5.7614   6.5094   0.00    0.0
2045 301698.000   44.408688107    8.929516570   109.9420   5   6   8.6037   5.1752  13.6404  -4.6875  -5.7614   6.5086   0.00    0.0
2045 301699.000   44.408691877    8.929508611   112.5403   5   6   8.6034   5.1757  13.6387  -4.6882  -5.7615   6.5078   0.00    0.0
2045 301700.000   44.408694444    8.929503798   114.7111   5   6   8.6031   5.1763  13.6370  -4.6889  -5.7615   6.5070   0.00    0.0
2045 301701.000   44.408689841    8.929510911   115.9340   5   6   8.6028   5.1768  13.6352  -4.6896  -5.7615   6.5062   0.00    0.0
2045 301702.000   44.408692119    8.929505912   116.4010   5   6   8.6025   5.1774  13.6335  -4.6904  -5.7616   6.5054   0.00    0.0
2045 301703.000   44.408682027    8.929518263   120.6329   5   6   8.6021   5.1779  13.6318  -4.6911  -5.7616   6.5046   0.00    0.0
2045 301704.000   44.408681517    8.929515748   123.2817   5   6   8.6018   5.1785  13.6300  -4.6918  -5.7616   6.5038   0.00    0.0
2045 301705.000   44.408684530    8.929503393   123.9620   5   6   8.6015   5.1790  13.6283  -4.6925  -5.7616   6.5030   0.00    0.0
2045 301706.000   44.408676635    8.929515061   124.3620   5   6   8.6012   5.1795  13.6266  -4.6933  -5.7617   6.5022   0.00    0.0
2045 301707.000   44.408672124    8.929517117   122.0846   5   6   8.6009   5.1801  13.6248  -4.6940  -5.7617   6.5014   0.00    0.0
2045 301708.000   44.408663264    8.929523032   120.1692   5   6   8.6006   5.1806  13.6231  -4.6947  -5.7617   6.5006   0.00    0.0
