% (lat/lon/height=WGS84/ellipsoidal,Q=1:fix,2:float,3:sbas,4:dgps,5:single,6:ppp,ns=# of satellites)
%  GPST          latitude(deg) longitude(deg)  height(m)   Q  ns   sdn(m)   sde(m)   sdu(m)  sdne(m)  sdeu(m)  sdun(m) age(s)  ratio
2041 234922.000   44.408631873    8.929475877    63.4996   5   8   8.4913   4.2997  10.6877  -4.5765  -3.9597   6.8540   0.00    0.0
2041 234923.000   44.408634611    8.929469717    63.6909   5   8   8.4903   4.2997  10.6854  -4.5764  -3.9588   6.8519   0.00    0.0
2041 234924.000   44.408632724    8.929482173    63.5778   5   8   8.4894   4.2997  10.6831  -4.5762  -3.9579   6.8498   0.00    0.0
2041 234925.000   44.408637436    8.929470142    64.4381   5   8   8.4884   4.2998  10.6807  -4.5761  -3.9570   6.8478   0.00    0.0
2041 234926.000   44.408635702    8.929470808    63.7303   5   8   8.4875   4.2998  10.6784  -4.5759  -3.9562   6.8457   0.00    0.0
2041 234927.000   44.408632185    8.929468467    63.5840   5   8   8.4865   4.2998  10.6761  -4.5758  -3.9553   6.8436   0.00    0.0
2041 234928.000   44.408631225    8.929472234    63.0694   5   8   8.4856   4.2998  10.6737  -4.5756  -3.9544   6.8415   0.00    0.0
2041 234929.000   44.408628114    8.929468307    62.4129   5   8   8.4847   4.2999  10.6714  -4.5755  -3.9535   6.8394   0.00    0.0
2041 234930.000   44.408625558    8.929469389    61.8794   5   8   8.4837   4.2999  10.6691  -4.5753  -3.9527   6.8373   0.00    0.0
2041 234931.000   44.408637336    8.929470057    63.0235   5   8   8.4828   4.2999  10.6667  -4.5752  -3.9518   6.8353   0.00    0.0
2041 234932.000   44.408615740    8.929471165    59.8859   5   8   8.4818   4.3000  10.6644  -4.5750  -3.9509   6.8332   0.00    0.0
2041 234933.000   44.408598385    8.929476175    57.8731   5   8   8.4809   4.3000  10.6621  -4.5749  -3.9500   6.8311   0.00    0.0
2041 234934.000   44.408602971    8.929470519    58.2898   5   8   8.4799   4.3000  10.6598  -4.5747  -3.9492   6.8290   0.00    0.0
2041 234935.000   44.408635667    8.929451884    60.8073   5   8   8.4790   4.3001  10.6574  -4.5746  -3.9483   6.8269   0.00    0.0
2041 234936.000   44.408635392    8.929438731    59.6563   5   8   8.4780   4.3001  10.6551  -4.5744  -3.9474   6.8248   0.00    0.0
2041 234937.000   44.408612331    8.929441691    56.1368   5   8   8.4771   4.3001  10.6528  -4.5742  -3.9465   6.8228   0.00    0.0
2041 234938.000   44.408594624    8.929453084    54.6970   5   8   8.4761   4.3002  10.6504  -4.5741  -3.9457   6.8207   0.00    0.0
2041 234939.000   44.408601900    8.929446137    54.7476   5   8   8.4752   4.3002  10.6481  -4.5739  -3.9448   6.8186   0.00    0.0
2041 234940.000   44.408607015    8.929447736    54.7446   5   8   8.4742   4.3002  10.6458  -4.5738  -3.9439   6.8165   0.00    0.0
2041 234941.000   44.408599072    8.929463583    54.3503   5   8   8.4733   4.3003  10.6435  -4.5736  -3.9430   6.8144   0.00    0.0
2041 234942.000   44.408572791    8.929493528    53.0739   5   8   8.4724   4.3003  10.6411  -4.5735  -3.9422   6.8123   0.00    0.0
2041 234943.000   44.408591800    8.929490881    54.4189   5   8   8.4714   4.3003  10.6388  -4.5733  -3.9413   6.8103   0.00    0.0
2041 234944.000   44.408574833    8.929523482    53.6854   5   8   8.4705   4.3003  10.6365  -4.5732  -3.9404   6.8082   0.00    0.0
2041 234945.000   44.408583473    8.929534674    55.4417   5   8   8.4695   4.3004  10.6342  -4.5730  -3.9395   6.8061   0.00    0.0
2041 234946.000   44.408564342    8.929559736    53.3439   5   8   8.4686   4.3004  10.6318  -4.5729  -3.9386   6.8040   0.00    0.0
2041 234947.000   44.408560623    8.929561334    52.6756   5   8   8.4676   4.3004  10.6295  -4.5727  -3.9378   6.8019   0.00    0.0
2041 234948.000   44.408558817    8.929560492    51.4015   5   8   8.4667   4.3005  10.6272  -4.5726  -3.9369   6.7998   0.00    0.0
2041 234949.000   44.408560380    8.929562272    51.7062   5   8   8.4657   4.3005  10.6249  -4.5724  -3.9360   6.7978   0.00    0.0
2041 234950.000   44.408553088    8.929575154    50.5049   5   8   8.4648   4.3005  10.6226  -4.5722  -3.9351   6.7957   0.00    0.0
2041 234951.000   44.408549024    8.929585556    50.0666   5   8   8.4638   4.3006  10.6202  -4.5721  -3.9343   6.7936   0.00    0.0
2041 234952.000   44.408564173    8.929567728    50.4071   5   8   8.4629   4.3006  10.6179  -4.5719  -3.9334   6.7915   0.00    0.0
2041 234953.000   44.408563750    8.929574726    50.5420   5   8   8.4619   4.3006  10.6156  -4.5718  -3.9325   6.7894   0.00    0.0
2041 234954.000   44.408557697    8.929577293    49.9657   5   8   8.4610   4.3006  10.6133  -4.5716  -3.9316   6.7873   0.00    0.0
2041 234955.000   44.408555112    8.929583188    49.1058   5   8   8.4600   4.3007  10.6109  -4.5714  -3.9307   6.7853   0.00    0.0
2041 234956.000   44.408542525    8.929610950    50.2657   5   8   8.4591   4.3007  10.6086  -4.5713  -3.9299   6.7832   0.00    0.0
2041 234957.000   44.408542243    8.929594834    49.2189   5   8   8.4581   4.3007  10.6063  -4.5711  -3.9290   6.7811   0.00    0.0
2041 234958.000   44.408537193    8.929614876    49.6400   5   8   8.4572   4.3008  10.6040  -4.5710  -3.9281   6.7790   0.00    0.0
2041 234959.000   44.408540843    8.929606623    49.5155   5   8   8.4562   4.3008  10.6017  -4.5708  -3.9272   6.7769   0.00    0.0
2041 234960.000   44.408540083    8.929598558    48.9497   5   8   8.4553   4.3008  10.5994  -4.5707  -3.9263   6.7748   0.00    0.0
2041 234961.000   44.408525956    8.929586727    46.4343   5   8   8.4543   4.3008  10.5970  -4.5705  -3.9254   6.7728   0.00    0.0
2041 234962.000   44.408523439    8.929600473    46.8219   5   8   8.4534   4.3009  10.5947  -4.5703  -3.9246   6.7707   0.00    0.0
2041 234963.000   44.408525507    8.929590291    46.6614   5   8   8.4524   4.3009  10.5924  -4.5702  -3.9237   6.7686   0.00    0.0
2041 234964.000   44.408536027    8.929581309    47.5618   5   8   8.4515   4.3009  10.5901  -4.5700  -3.9228   6.7665   0.00    0.0
2041 234965.000   44.408535130    8.929583622    47.1108   5   8   8.4505   4.3009  10.5878  -4.5698  -3.9219   6.7644   0.00    0.0
2041 234966.000   44.408542689    8.929569595    47.7125   5   8   8.4495   4.3010  10.5855  -4.5697  -3.9210   6.7623   0.00    0.0
2041 234967.000   44.408536665    8.929575277    47.0463   5   8   8.4486   4.3010  10.5832  -4.5695  -3.9201   6.7603   0.00    0.0
2041 234968.000   44.408543560    8.929561824    47.1085   5   8   8.4476   4.3010  10.5808  -4.5694  -3.9193   6.7582   0.00    0.0
2041 234969.000   44.408561396    8.929538555    47.8368   5   8   8.4467   4.3011  10.5785  -4.5692  -3.9184   6.7561   0.00    0.0
2041 234970.000   44.408538173    8.929561094    47.1155   5   8   8.4457   4.3011  10.5762  -4.5690  -3.9175   6.7540   0.00    0.0
2041 234971.000   44.408531120    8.929565230    46.0199   5   8   8.4448   4.3011  10.5739  -4.5689  -3.9166   6.7519   0.00    0.0
2041 234972.000   44.408552617    8.929539903    47.3816   5   8   8.4438   4.3011  10.5716  -4.5687  -3.9157   6.7498   0.00    0.0
2041 234973.000   44.408553885    8.929543822    47.3179   5   8   8.4429   4.3012  10.5693  -4.5685  -3.9148   6.7477   0.00    0.0
2041 234974.000   44.408565237    8.929539037    48.5406   5   8   8.4419   4.3012  10.5670  -4.5684  -3.9140   6.7457   0.00    0.0
2041 234975.000   44.408559533    8.929539929    47.6250   5   8   8.4410   4.3012  10.5647  -4.5682  -3.9131   6.7436   0.00    0.0
2041 234976.000   44.408567269    8.929534896    48.4663   5   8   8.4400   4.3012  10.5624  -4.5680  -3.9122   6.7415   0.00    0.0
2041 234977.000   44.408574539    8.929540082    49.3324   5   8   8.4390   4.3013  10.5600  -4.5679  -3.9113   6.7394   0.00    0.0
2041 234978.000   44.408588012    8.929532954    50.7505   5   8   8.4381   4.3013  10.5577  -4.5677  -3.9104   6.7373   0.00    0.0
2041 234979.000   44.408584726    8.929535140    49.7266   5   8   8.4371   4.3013  10.5554  -4.5675  -3.9095   6.7352   0.00    0.0
2041 234980.000   44.408582205    8.929534824    49.2988   5   8   8.4362   4.3013  10.5531  -4.5674  -3.9086   6.7332   0.00    0.0
2041 234981.000   44.408586516    8.929532770    50.4135   5   8   8.4352   4.3014  10.5508  -4.5672  -3.9078   6.7311   0.00    0.0
2041 234982.000   44.408589643    8.929531660    50.4656   5   8   8.4343   4.3014  10.5485  -4.5670  -3.9069   6.7290   0.00    0.0
2041 234983.000   44.408592248    8.929536564    50.2670   5   8   8.4333   4.3014  10.5462  -4.5669  -3.9060   6.7269   0.00    0.0
