% (lat/lon/height=WGS84/ellipsoidal,Q=1:fix,2:float,3:sbas,4:dgps,5:single,6:ppp,ns=# of satellites)
%  GPST          latitude(deg) longitude(deg)  height(m)   Q  ns   sdn(m)   sde(m)   sdu(m)  sdne(m)  sdeu(m)  sdun(m) age(s)  ratio
2045 405237.000   44.408689822    8.929384522    31.9607   5   5   6.4911   7.8433  13.5077  -3.8119   6.0471   5.0790   0.00    0.0
2045 405238.000   44.408663119    8.929385582    41.0168   5   5   6.4919   7.8432  13.5088  -3.8114   6.0472   5.0822   0.00    0.0
2045 405239.000   44.408663896    8.929376327    39.6896   5   5   6.4927   7.8431  13.5098  -3.8108   6.0473   5.0853   0.00    0.0
2045 405245.000   44.408604337    8.929354701    58.4033   5   5   6.4975   7.8428  13.5159  -3.8075   6.0482   5.1045   0.00    0.0
2045 405246.000   44.408596231    8.929351829    60.7510   5   5   6.4983   7.8427  13.5170  -3.8069   6.0483   5.1077   0.00    0.0
2045 405247.000   44.408598868    8.929347324    58.9729   5   5   6.4991   7.8427  13.5180  -3.8064   6.0485   5.1108   0.00    0.0
2045 405248.000   44.408593538    8.929343861    61.5768   5   5   6.4999   7.8426  13.5190  -3.8058   6.0486   5.1140   0.00    0.0
2045 405249.000   44.408590100    8.929341581    61.2542   5   5   6.5007   7.8426  13.5201  -3.8053   6.0487   5.1172   0.00    0.0
2045 405250.000   44.408578452    8.929341778    65.5950   5   5   6.5015   7.8425  13.5211  -3.8047   6.0489   5.1204   0.00    0.0
2045 405251.000   44.408579452    8.929340655    66.0015   5   5   6.5023   7.8424  13.5221  -3.8042   6.0490   5.1236   0.00    0.0
2045 405252.000   44.408588951    8.929340665    63.8267   5   5   6.5032   7.8424  13.5232  -3.8036   6.0492   5.1267   0.00    0.0
2045 405253.000   44.408585732    8.929338786    65.8972   5   5   6.5040   7.8423  13.5242  -3.8031   6.0493   5.1299   0.00    0.0
2045 405254.000   44.408584626    8.929339893    67.2288   5   5   6.5048   7.8423  13.5252  -3.8025   6.0495   5.1331   0.00    0.0
2045 405255.000   44.408583311    8.929335070    67.7347   5   5   6.5056   7.8422  13.5263  -3.8020   6.0496   5.1363   0.00    0.0
2045 405256.000   44.408583850    8.929336144    67.9079   5   5   6.5064   7.8422  13.5273  -3.8014   6.0497   5.1394   0.00    0.0
2045 405257.000   44.408586865    8.929336521    68.7577   5   5   6.5072   7.8421  13.5283  -3.8008   6.0499   5.1426   0.00    0.0
2045 405258.000   44.408589742    8.929336782    67.5605   5   5   6.5080   7.8420  13.5294  -3.8003   6.0500   5.1458   0.00    0.0
2045 405259.000   44.408595503    8.929335779    66.0538   5   5   6.5088   7.8420  13.5304  -3.7997   6.0502   5.1489   0.00    0.0
2045 405260.000   44.408597308    8.929337322    67.3070   5   5   6.5096   7.8419  13.5314  -3.7992   6.0503   5.1521   0.00    0.0
2045 405261.000   44.408601025    8.929336236    66.3637   5   5   6.5105   7.8419  13.5325  -3.7986   6.0504   5.1552   0.00    0.0
2045 405262.000   44.408596924    8.929343528    70.0833   5   5   6.5113   7.8418  13.5335  -3.7981   6.0506   5.1584   0.00    0.0
2045 405263.000   44.408603121    8.929342968    68.5349   5   5   6.5121   7.8417  13.5345  -3.7975   6.0507   5.1616   0.00    0.0
2045 405264.000   44.408601063    8.929344152    69.8242   5   5   6.5129   7.8417  13.5356  -3.7970   6.0509   5.1647   0.00    0.0
2045 405265.000   44.408605828    8.929348740    69.2636   5   5   6.5137   7.8416  13.5366  -3.7964   6.0510   5.1679   0.00    0.0
2045 405266.000   44.408612167    8.929348695    69.1005   5   5   6.5145   7.8416  13.5377  -3.7959   6.0512   5.1710   0.00    0.0
2045 405267.000   44.408620379    8.929345640    67.1167   5   5   6.5154   7.8415  13.5387  -3.7953   6.0513   5.1742   0.00    0.0
2045 405268.000   44.408623941    8.929347961    67.8167   5   5   6.5162   7.8415  13.5397  -3.7947   6.0514   5.1774   0.00    0.0
2045 405269.000   44.408626164    8.929350887    69.4293   5   5   6.5170   7.8414  13.5408  -3.7942   6.0516   5.1805   0.00    0.0
2045 405270.000   44.408622972    8.929352486    70.9551   5   5   6.5178   7.8413  13.5418  -3.7936   6.0517   5.1837   0.00    0.0
2045 405271.000   44.408628386    8.929356444    70.4500   5   5   6.5186   7.8413  13.5429  -3.7931   6.0519   5.1868   0.00    0.0
2045 405272.000   44.408623560    8.929359799    74.8368   5   5   6.5195   7.8412  13.5439  -3.7925   6.0520   5.1900   0.00    0.0
2045 405273.000   44.408623401    8.929365167    76.2601   5   5   6.5203   7.8412  13.5449  -3.7920   6.0521   5.1931   0.00    0.0
2045 405274.000   44.408619173    8.929366562    77.7295   5   5   6.5211   7.8411  13.5460  -3.7914   6.0523   5.1963   0.00    0.0
2045 405275.000   44.408618997    8.929366975    78.2753   5   5   6.5219   7.8410  13.5470  -3.7908   6.0524   5.1994   0.00    0.0
2045 405276.000   44.408619934    8.929370616    78.0060   5   5   6.5228   7.8410  13.5481  -3.7903   6.0526   5.2026   0.00    0.0
2045 405277.000   44.408626825    8.929371532    76.4416   5   5   6.5236   7.8409  13.5491  -3.7897   6.0527   5.2057   0.00    0.0
2045 405278.000   44.408620107    8.929376297    78.0868   5   5   6.5244   7.8409  13.5501  -3.7892   6.0528   5.2089   0.00    0.0
2045 405279.000   44.408622194    8.929368474    74.4634   5   5   6.5252   7.8408  13.5512  -3.7886   6.0530   5.2120   0.00    0.0
2045 405280.000   44.408621335    8.929372460    72.7208   5   5   6.5261   7.8407  13.5522  -3.7881   6.0531   5.2151   0.00    0.0
2045 405281.000   44.408618704    8.929365647    71.5712   5   5   6.5269   7.8407  13.5533  -3.7875   6.0533   5.2183   0.00    0.0
2045 405282.000   44.408622703    8.929364446    67.3911   5   5   6.5277   7.8406  13.5543  -3.7869   6.0534   5.2214   0.00    0.0
