% (lat/lon/height=WGS84/ellipsoidal,Q=1:fix,2:float,3:sbas,4:dgps,5:single,6:ppp,ns=# of satellites)
%  GPST          latitude(deg) longitude(deg)  height(m)   Q  ns   sdn(m)   sde(m)   sdu(m)  sdne(m)  sdeu(m)  sdun(m) age(s)  ratio
2045 405889.000   44.408529721    8.929475269    65.6031   5   5   7.1638   6.2894  25.9067   3.5860  -7.8553  -0.5982   0.00    0.0
2045 405890.000   44.408533450    8.929478591    63.6286   5   5   7.1639   6.2882  25.9142   3.5849  -7.8520  -0.5456   0.00    0.0
2045 405891.000   44.408546324    8.929490753    61.0974   5   5   7.1640   6.2870  25.9217   3.5838  -7.8488  -0.4873   0.00    0.0
2045 405892.000   44.408539256    8.929505450    57.4542   5   5   7.1641   6.2858  25.9292   3.5827  -7.8455  -0.4208   0.00    0.0
2045 405893.000   44.408538906    8.929508351    57.8523   5   5   7.1642   6.2846  25.9367   3.5816  -7.8423  -0.3417   0.00    0.0
2045 405894.000   44.408549773    8.929512820    58.6625   5   5   7.1642   6.2834  25.9442   3.5805  -7.8390  -0.2377   0.00    0.0
2045 405895.000   44.408540729    8.929506759    58.1376   5   5   7.1643   6.2822  25.9518   3.5794  -7.8357   0.0634   0.00    0.0
2045 405896.000   44.408548684    8.929527308    55.8111   5   5   7.1644   6.2811  25.9593   3.5783  -7.8325   0.2536   0.00    0.0
2045 405897.000   44.408558872    8.929521864    58.4243   5   5   7.1645   6.2799  25.9668   3.5772  -7.8292   0.3530   0.00    0.0
2045 405898.000   44.408545703    8.929532777    56.2149   5   5   7.1646   6.2787  25.9744   3.5761  -7.8259   0.4305   0.00    0.0
2045 405899.000   44.408552230    8.929526168    57.7733   5   5   7.1647   6.2775  25.9819   3.5750  -7.8226   0.4957   0.00    0.0
2045 405900.000   44.408560896    8.929511029    63.3921   5   5   7.1648   6.2763  25.9894   3.5739  -7.8193   0.5533   0.00    0.0
2045 405901.000   44.408557283    8.929490506    65.8190   5   5   7.1649   6.2751  25.9970   3.5728  -7.8160   0.6055   0.00    0.0
2045 405902.000   44.408576144    8.929487666    69.6319   5   5   7.1650   6.2739  26.0045   3.5717  -7.8127   0.6534   0.00    0.0
2045 405903.000   44.408604120    8.929493676    70.7633   5   5   7.1651   6.2728  26.0121   3.5706  -7.8094   0.6980   0.00    0.0
2045 405904.000   44.408609372    8.929479314    73.7149   5   5   7.1652   6.2716  26.0197   3.5695  -7.8061   0.7401   0.00    0.0
2045 405905.000   44.408630131    8.929460236    78.6651   5   5   7.1652   6.2704  26.0272   3.5684  -7.8027   0.7798   0.00    0.0
2045 405906.000   44.408642731    8.929444676    82.2942   5   5   7.1653   6.2692  26.0348   3.5673  -7.7994   0.8177   0.00    0.0
2045 405907.000   44.408650087    8.929439059    84.0931   5   5   7.1654   6.2680  26.0423   3.5662  -7.7961   0.8539   0.00    0.0
2045 405908.000   44.408652553    8.929431866    86.3898   5   5   7.1655   6.2668  26.0499   3.5652  -7.7927   0.8887   0.00    0.0
2045 405909.000   44.408662791    8.929438149    86.5645   5   5   7.1656   6.2657  26.0575   3.5641  -7.7894   0.9222   0.00    0.0
2045 405910.000   44.408682232    8.929458624    89.1870   5   5   7.1657   6.2645  26.0651   3.5630  -7.7861   0.9544   0.00    0.0
2045 405911.000   44.408701129    8.929442733    99.7549   5   5   7.1658   6.2633  26.0726   3.5619  -7.7827   0.9856   0.00    0.0
2045 405912.000   44.408677397    8.929439725    91.4777   5   5   7.1659   6.2621  26.0802   3.5608  -7.7794   1.0162   0.00    0.0
2045 405913.000   44.408690945    8.929422579    95.6939   5   5   7.1660   6.2610  26.0878   3.5597  -7.7760   1.0456   0.00    0.0
2045 405914.000   44.408691768    8.929443529    92.3579   5   5   7.1661   6.2598  26.0954   3.5587  -7.7727   1.0743   0.00    0.0
2045 405915.000   44.408708086    8.929443214    95.1620   5   5   7.1662   6.2586  26.1030   3.5576  -7.7693   1.1022   0.00    0.0
2045 405916.000   44.408697175    8.929442344    92.9282   5   5   7.1663   6.2574  26.1106   3.5565  -7.7659   1.1295   0.00    0.0
2045 405917.000   44.408699898    8.929447479    92.6100   5   5   7.1664   6.2563  26.1183   3.5554  -7.7626   1.1562   0.00    0.0
2045 405918.000   44.408710691    8.929447645    92.9179   5   5   7.1665   6.2551  26.1259   3.5544  -7.7592   1.1822   0.00    0.0
2045 405919.000   44.408720283    8.929459046    92.2996   5   5   7.1667   6.2539  26.1335   3.5533  -7.7558   1.2076   0.00    0.0
2045 405920.000   44.408726698    8.929473900    90.0061   5   5   7.1668   6.2527  26.1411   3.5522  -7.7524   1.2326   0.00    0.0
2045 405921.000   44.408742080    8.929471581    91.8952   5   5   7.1669   6.2516  26.1487   3.5512  -7.7490   1.2570   0.00    0.0
2045 405922.000   44.408736423    8.929490702    88.0215   5   5   7.1670   6.2504  26.1564   3.5501  -7.7456   1.2811   0.00    0.0
2045 405923.000   44.408734689    8.929483558    89.2814   5   5   7.1671   6.2492  26.1640   3.5490  -7.7422   1.3048   0.00    0.0
2045 405924.000   44.408736565    8.929506574    85.0504   5   5   7.1672   6.2481  26.1716   3.5480  -7.7388   1.3280   0.00    0.0
2045 405925.000   44.408731355    8.929512369    82.1138   5   5   7.1673   6.2469  26.1793   3.5469  -7.7354   1.3508   0.00    0.0
2045 405926.000   44.408723223    8.929509866    81.4959   5   5   7.1674   6.2457  26.1869   3.5458  -7.7320   1.3733   0.00    0.0
2045 405927.000   44.408716961    8.929511163    80.5586   5   5   7.1675   6.2446  26.1946   3.5448  -7.7286   1.3954   0.00    0.0
2045 405928.000   44.408717036    8.929516569    79.4675   5   5   7.1676   6.2434  26.2022   3.5437  -7.7251   1.4172   0.00    0.0
2045 405929.000   44.408729614    8.929525319    78.9148   5   5   7.1677   6.2422  26.2099   3.5427  -7.7217   1.4386   0.00    0.0
2045 405930.000   44.408735658    8.929543515    75.6555   5   5   7.1679   6.2411  26.2176   3.5416  -7.7183   1.4597   0.00    0.0
2045 405931.000   44.408739589    8.929583823    69.4477   5   5   7.1680   6.2399  26.2252   3.5406  -7.7149   1.4805   0.00    0.0
2045 405932.000   44.408724793    8.929586941    66.6980   5   5   7.1681   6.2388  26.2329   3.5395  -7.7114   1.5011   0.00    0.0
2045 405933.000   44.408725870    8.929604429    62.8145   5   5   7.1682   6.2376  26.2406   3.5385  -7.7080   1.5214   0.00    0.0
2045 405934.000   44.408732895    8.929608891    62.9595   5   5   7.1683   6.2364  26.2482   3.5374  -7.7045   1.5414   0.00    0.0
2045 405935.000   44.408744971    8.929624951    61.5905   5   5   7.1684   6.2353  26.2559   3.5364  -7.7011   1.5612   0.00    0.0
